{
  "type": "FeatureCollection",
  "features": [
    {"type":"Feature","properties":{"sign_type":"None","station_name":"Decatur & Ursulines","objectid":"2203","number_of_rack_spaces":"18","site_type":"On-Street","station_number":"610","width_of_station_in_feet":"5.25","length_of_station_in_feet":"46.75","issuedate":"20180718154001.000"},"geometry":{"type":"Point","coordinates":[-90.059892030831,29.959838387925]}},{"type":"Feature","properties":{"sign_type":"Large","station_name":"River Garden - Walmart","objectid":"2172","number_of_rack_spaces":"14","site_type":"On-Street","station_number":"433","width_of_station_in_feet":"5.33","length_of_station_in_feet":"37.08","issuedate":"20171103144111.000"},"geometry":{"type":"Point","coordinates":[-90.070278858691,29.926280097141]}},{"type":"Feature","properties":{"sign_type":"Small","station_name":"BROAD & ST. BERNARD","objectid":"2200","number_of_rack_spaces":"20","site_type":"On-Street","station_number":"281","width_of_station_in_feet":"5.33","length_of_station_in_feet":"51.75","issuedate":"20180103174956.000"},"geometry":{"type":"Point","coordinates":[-90.071695395816,29.982923104703]}},{"type":"Feature","properties":{"sign_type":"Large","station_name":"City Park- Casino Building","objectid":"2216","number_of_rack_spaces":"20","site_type":"On-Street","station_number":"362","width_of_station_in_feet":"6","length_of_station_in_feet":"51.8","issuedate":"20180110100755.000"},"geometry":{"type":"Point","coordinates":[-90.095058109338,29.985648592141]}},{"type":"Feature","properties":{"sign_type":"Large","station_name":"Main Library","objectid":"2184","number_of_rack_spaces":"25","site_type":"On-Street","station_number":"509","width_of_station_in_feet":"5.25","length_of_station_in_feet":"64.08","issuedate":"20171121152215.000"},"geometry":{"type":"Point","coordinates":[-90.075308679853,29.954372638866]}},{"type":"Feature","properties":{"sign_type":"Small","station_name":"Royal & Lesseps","objectid":"2205","number_of_rack_spaces":"14","site_type":"On-Street","station_number":"102","width_of_station_in_feet":"5.25","length_of_station_in_feet":"37","issuedate":"20171219153335.000"},"geometry":{"type":"Point","coordinates":[-90.033960513481,29.960842550904]}},{"type":"Feature","properties":{"sign_type":"Large","station_name":"Tchoupitoulas & Lafayette","objectid":"2204","number_of_rack_spaces":"20","site_type":"On-Street","station_number":"546","width_of_station_in_feet":"5.5","length_of_station_in_feet":"51.8","issuedate":"20171207114352.000"},"geometry":{"type":"Point","coordinates":[-90.067324142892,29.947449979951]}},{"type":"Feature","properties":{"sign_type":"Large","station_name":"Bienville & N Peters","objectid":"2220","number_of_rack_spaces":"25","site_type":"On-Street","station_number":"632","width_of_station_in_feet":"6","length_of_station_in_feet":"64.5","issuedate":"20171215134654.000"},"geometry":{"type":"Point","coordinates":[-90.064989974296,29.953146328159]}},{"type":"Feature","properties":{"sign_type":"Small","station_name":"Royal & Piety","objectid":"2197","number_of_rack_spaces":"20","site_type":"On-Street","station_number":"119","width_of_station_in_feet":"5.25","length_of_station_in_feet":"51.66","issuedate":"20171215134523.000"},"geometry":{"type":"Point","coordinates":[-90.042692429748,29.962895201069]}},{"type":"Feature","properties":{"sign_type":"Large","station_name":"Sojourner Truth Center","objectid":"2171","number_of_rack_spaces":"25","site_type":"On-Street","station_number":"274","width_of_station_in_feet":"5.33","length_of_station_in_feet":"64.1","issuedate":"20171130154754.000"},"geometry":{"type":"Point","coordinates":[-90.078683400148,29.965891778314]}},{"type":"Feature","properties":{"sign_type":"Small","station_name":"Magazine & Jackson","objectid":"2166","number_of_rack_spaces":"20","site_type":"On-Street","station_number":"429","width_of_station_in_feet":"5.25","length_of_station_in_feet":"51.75","issuedate":"20171106113439.000"},"geometry":{"type":"Point","coordinates":[-90.0768476739,29.929847142812]}},{"type":"Feature","properties":{"sign_type":"Large","station_name":"Convention Center - Riverwalk","objectid":"2230","number_of_rack_spaces":"25","site_type":"Off-street/Sidewalk","station_number":"527","width_of_station_in_feet":"5.75","length_of_station_in_feet":"69.25","issuedate":"20180131104115.000"},"geometry":{"type":"Point","coordinates":[-90.063587520073,29.944028240599]}},{"type":"Feature","properties":{"sign_type":"Large","station_name":"OC Haley & MLK","objectid":"2180","number_of_rack_spaces":"25","site_type":"Neutral Ground","station_number":"403","width_of_station_in_feet":"5.83","length_of_station_in_feet":"64.08","issuedate":"20171103150440.000"},"geometry":{"type":"Point","coordinates":[-90.079293429388,29.941027456727]}},{"type":"Feature","properties":{"sign_type":"Small","station_name":"Magazine & Richard","objectid":"2173","number_of_rack_spaces":"14","site_type":"On-Street","station_number":"426","width_of_station_in_feet":"5.25","length_of_station_in_feet":"39.83","issuedate":"20171106173547.000"},"geometry":{"type":"Point","coordinates":[-90.073216537206,29.932531482768]}},{"type":"Feature","properties":{"sign_type":"Large","station_name":"City Park - Esplanade","objectid":"2211","number_of_rack_spaces":"20","site_type":"Neutral Ground","station_number":"308","width_of_station_in_feet":"5.8","length_of_station_in_feet":"52","issuedate":"20180103151139.000"},"geometry":{"type":"Point","coordinates":[-90.090069669721,29.983935048236]}},{"type":"Feature","properties":{"sign_type":"Small","station_name":"BROAD & BANKS","objectid":"2218","number_of_rack_spaces":"14","site_type":"Off-street/Sidewalk","station_number":"326","width_of_station_in_feet":"5.8","length_of_station_in_feet":"37","issuedate":"20180110134211.000"},"geometry":{"type":"Point","coordinates":[-90.089523830444,29.962837766671]}},{"type":"Feature","properties":{"sign_type":"Large","station_name":"Rampart & Esplanade","objectid":"2179","number_of_rack_spaces":"14","site_type":"On-Street","station_number":"151","width_of_station_in_feet":"5.5","length_of_station_in_feet":"39.5","issuedate":"20171207161900.000"},"geometry":{"type":"Point","coordinates":[-90.063891562185,29.965796239945]}},{"type":"Feature","properties":{"sign_type":"Large","station_name":"Jefferson Davis & Lafitte Greenway","objectid":"2202","number_of_rack_spaces":"20","site_type":"On-Street","station_number":"313","width_of_station_in_feet":"6.2","length_of_station_in_feet":"51.8","issuedate":"20180104144958.000"},"geometry":{"type":"Point","coordinates":[-90.091868142927,29.972691198832]}},{"type":"Feature","properties":{"sign_type":"Small","station_name":"Royal & Press","objectid":"2194","number_of_rack_spaces":"14","site_type":"Private Property","station_number":"126","width_of_station_in_feet":"6","length_of_station_in_feet":"37.25","issuedate":"20180129171322.000"},"geometry":{"type":"Point","coordinates":[-90.048413087347,29.964291590211]}},{"type":"Feature","properties":{"sign_type":"Small","station_name":"Lafitte & Roman","objectid":"2170","number_of_rack_spaces":"20","site_type":"On-Street","station_number":"292","width_of_station_in_feet":"5.25","length_of_station_in_feet":"51.66","issuedate":"20171201113303.000"},"geometry":{"type":"Point","coordinates":[-90.07580260227,29.964588198994]}},{"type":"Feature","properties":{"sign_type":"Large","station_name":"City Hall - Superdome","objectid":"2167","number_of_rack_spaces":"25","site_type":"On-Street","station_number":"501","width_of_station_in_feet":"5.42","length_of_station_in_feet":"67.42","issuedate":"20171205145258.000"},"geometry":{"type":"Point","coordinates":[-90.078316245186,29.952070474744]}},{"type":"Feature","properties":{"sign_type":"Small","station_name":"St Claude & St Roch","objectid":"2226","number_of_rack_spaces":"14","site_type":"On-Street","station_number":"137","width_of_station_in_feet":"5.25","length_of_station_in_feet":"37","issuedate":"20171221132552.000"},"geometry":{"type":"Point","coordinates":[-90.052008115348,29.96885316681]}},{"type":"Feature","properties":{"sign_type":"Small","station_name":"Cricle Food Store","objectid":"2207","number_of_rack_spaces":"13","site_type":"On-Street","station_number":"253","width_of_station_in_feet":"5.5","length_of_station_in_feet":"34.5","issuedate":"20171222120505.000"},"geometry":{"type":"Point","coordinates":[-90.065409805607,29.97226615027]}},{"type":"Feature","properties":{"sign_type":"Small","station_name":"OC Haley & St Andrew","objectid":"2188","number_of_rack_spaces":"14","site_type":"On-Street","station_number":"406","width_of_station_in_feet":"5.25","length_of_station_in_feet":"36.92","issuedate":"20171103144309.000"},"geometry":{"type":"Point","coordinates":[-90.081309615179,29.938210496864]}},{"type":"Feature","properties":{"sign_type":"Large","station_name":"Union Passenger Terminal","objectid":"2219","number_of_rack_spaces":"14","site_type":"Private Property","station_number":"530","width_of_station_in_feet":"5.8","length_of_station_in_feet":"35.85","issuedate":"20180201141404.000"},"geometry":{"type":"Point","coordinates":[-90.078183512119,29.946069542926]}},{"type":"Feature","properties":{"sign_type":"Small","station_name":"Alvar Library","objectid":"2224","number_of_rack_spaces":"14","site_type":"On-Street","station_number":"112","width_of_station_in_feet":"5.33","length_of_station_in_feet":"37","issuedate":"20171215134555.000"},"geometry":{"type":"Point","coordinates":[-90.036923502633,29.964021144845]}},{"type":"Feature","properties":{"sign_type":"Large","station_name":"Tchoupitoulas & St Joseph","objectid":"2187","number_of_rack_spaces":"20","site_type":"Off-street/Sidewalk","station_number":"541","width_of_station_in_feet":"6","length_of_station_in_feet":"51.66","issuedate":"20171129171056.000"},"geometry":{"type":"Point","coordinates":[-90.067655728753,29.943140603718]}},{"type":"Feature","properties":{"sign_type":"None","station_name":"St. Bernard & Henriette Delille","objectid":"2195","number_of_rack_spaces":"14","site_type":"On-Street","station_number":"243","width_of_station_in_feet":"5.25","length_of_station_in_feet":"37","issuedate":"20180103174341.000"},"geometry":{"type":"Point","coordinates":[-90.063049661293,29.968240118451]}},{"type":"Feature","properties":{"sign_type":"Small","station_name":"BASIN & BIENVILLE","objectid":"2229","number_of_rack_spaces":"9","site_type":"Private Property","station_number":"285","width_of_station_in_feet":"6.25","length_of_station_in_feet":"24.7","issuedate":"20180201141339.000"},"geometry":{"type":"Point","coordinates":[-90.072101764988,29.958073730097]}},{"type":"Feature","properties":{"sign_type":"None","station_name":"Loyola - Hyatt","objectid":"2183","number_of_rack_spaces":"25","site_type":"On-Street","station_number":"503","width_of_station_in_feet":"5.5","length_of_station_in_feet":"64.08","issuedate":"20171116103040.000"},"geometry":{"type":"Point","coordinates":[-90.076468778997,29.949138492629]}},{"type":"Feature","properties":{"sign_type":"Large","station_name":"Canal Street Ferry - Aquarium","objectid":"2192","number_of_rack_spaces":"25","site_type":"Off-street/Sidewalk","station_number":"600","width_of_station_in_feet":"12","length_of_station_in_feet":"64.3","issuedate":"20171207164120.000"},"geometry":{"type":"Point","coordinates":[-90.063657468108,29.950079363461]}},{"type":"Feature","properties":{"sign_type":"Large","station_name":"Camp - Museums","objectid":"2164","number_of_rack_spaces":"20","site_type":"On-Street","station_number":"532","width_of_station_in_feet":"5.42","length_of_station_in_feet":"51.83","issuedate":"20171103143941.000"},"geometry":{"type":"Point","coordinates":[-90.071007078119,29.943620686296]}},{"type":"Feature","properties":{"sign_type":"Large","station_name":"Louis Armstrong Park","objectid":"2185","number_of_rack_spaces":"23","site_type":"Private Property","station_number":"277","width_of_station_in_feet":"11.75","length_of_station_in_feet":"59.25","issuedate":"20180129171411.000"},"geometry":{"type":"Point","coordinates":[-90.068072498132,29.961390462503]}},{"type":"Feature","properties":{"sign_type":"Large","station_name":"LSU Health Sciences Center","objectid":"2176","number_of_rack_spaces":"20","site_type":"On-Street","station_number":"335","width_of_station_in_feet":"5.58","length_of_station_in_feet":"51.83","issuedate":"20171129171015.000"},"geometry":{"type":"Point","coordinates":[-90.083122689343,29.956822456794]}},{"type":"Feature","properties":{"sign_type":"Small","station_name":"ST BERNARD & GALVEZ","objectid":"2201","number_of_rack_spaces":"14","site_type":"On-Street","station_number":"295","width_of_station_in_feet":"5.8","length_of_station_in_feet":"37","issuedate":"20180104145044.000"},"geometry":{"type":"Point","coordinates":[-90.06855567463,29.977226874057]}},{"type":"Feature","properties":{"sign_type":"Small","station_name":"ST CLAUDE & LOUISA","objectid":"2193","number_of_rack_spaces":"14","site_type":"On-Street","station_number":"123","width_of_station_in_feet":"5.25","length_of_station_in_feet":"37","issuedate":"20171222120556.000"},"geometry":{"type":"Point","coordinates":[-90.042540331552,29.967082771867]}},{"type":"Feature","properties":{"sign_type":"Small","station_name":"GALVEZ & ESPLANADE","objectid":"2208","number_of_rack_spaces":"20","site_type":"On-Street","station_number":"293","width_of_station_in_feet":"5.25","length_of_station_in_feet":"51.6","issuedate":"20180109093723.000"},"geometry":{"type":"Point","coordinates":[-90.073298088043,29.972196691936]}},{"type":"Feature","properties":{"sign_type":"None","station_name":"Esplanade & Derbigny","objectid":"2212","number_of_rack_spaces":"14","site_type":"On-Street","station_number":"260","width_of_station_in_feet":"5.25","length_of_station_in_feet":"37","issuedate":"20180104144025.000"},"geometry":{"type":"Point","coordinates":[-90.069507246666,29.969858132042]}},{"type":"Feature","properties":{"sign_type":"Small","station_name":"CANAL PLACE","objectid":"2221","number_of_rack_spaces":"12","site_type":"Off-street/Sidewalk","station_number":"547","width_of_station_in_feet":"5.83","length_of_station_in_feet":"32","issuedate":"20171207113017.000"},"geometry":{"type":"Point","coordinates":[-90.0656512026,29.951071123158]}},{"type":"Feature","properties":{"sign_type":"Large","station_name":"CARROLLTON & LAFITTE GREENWAY","objectid":"2217","number_of_rack_spaces":"20","site_type":"On-Street","station_number":"320","width_of_station_in_feet":"5.5","length_of_station_in_feet":"57.8","issuedate":"20180104144655.000"},"geometry":{"type":"Point","coordinates":[-90.0974515408,29.977275768772]}},{"type":"Feature","properties":{"sign_type":"Small","station_name":"St. Roch Park","objectid":"2225","number_of_rack_spaces":"8","site_type":"Private Property","station_number":"139","width_of_station_in_feet":"6","length_of_station_in_feet":"22.25","issuedate":"20180201141450.000"},"geometry":{"type":"Point","coordinates":[-90.052270876336,29.976852648025]}},{"type":"Feature","properties":{"sign_type":"Small","station_name":"Bayou and Broad","objectid":"2213","number_of_rack_spaces":"10","site_type":"Off-street/Sidewalk","station_number":"291","width_of_station_in_feet":"5.8","length_of_station_in_feet":"27","issuedate":"20180103174915.000"},"geometry":{"type":"Point","coordinates":[-90.076933652183,29.977109188402]}},{"type":"Feature","properties":{"sign_type":"Large","station_name":"Frenchmen & Royal","objectid":"2198","number_of_rack_spaces":"25","site_type":"On-Street","station_number":"143","width_of_station_in_feet":"5.5","length_of_station_in_feet":"62","issuedate":"20171221132748.000"},"geometry":{"type":"Point","coordinates":[-90.057808501788,29.964635469048]}},{"type":"Feature","properties":{"sign_type":"Large","station_name":"Stallings - St Claude","objectid":"2196","number_of_rack_spaces":"20","site_type":"On-Street","station_number":"107","width_of_station_in_feet":"5.5","length_of_station_in_feet":"52","issuedate":"20171219153629.000"},"geometry":{"type":"Point","coordinates":[-90.032704606183,29.96435482116]}},{"type":"Feature","properties":{"sign_type":"Small","station_name":"Treme Center","objectid":"2169","number_of_rack_spaces":"25","site_type":"On-Street","station_number":"273","width_of_station_in_feet":"5.25","length_of_station_in_feet":"64","issuedate":"20171129171119.000"},"geometry":{"type":"Point","coordinates":[-90.069595202605,29.965114434749]}},{"type":"Feature","properties":{"sign_type":"Small","station_name":"Annunciation Square","objectid":"2190","number_of_rack_spaces":"14","site_type":"Off-street/Sidewalk","station_number":"425","width_of_station_in_feet":"5.5","length_of_station_in_feet":"36.92","issuedate":"20171106173713.000"},"geometry":{"type":"Point","coordinates":[-90.070332802887,29.933799154113]}},{"type":"Feature","properties":{"sign_type":"Small","station_name":"Tchoupitoulas & JC Chase","objectid":"2178","number_of_rack_spaces":"14","site_type":"On-Street","station_number":"545","width_of_station_in_feet":"5.25","length_of_station_in_feet":"39.3","issuedate":"20171129171213.000"},"geometry":{"type":"Point","coordinates":[-90.068006829011,29.940762899871]}},{"type":"Feature","properties":{"sign_type":"Large","station_name":"University Medical Center - VA","objectid":"2175","number_of_rack_spaces":"20","site_type":"Off-street/Sidewalk","station_number":"330","width_of_station_in_feet":"10.33","length_of_station_in_feet":"27.25","issuedate":"20171207155309.000"},"geometry":{"type":"Point","coordinates":[-90.0827390672,29.962077350197]}},{"type":"Feature","properties":{"sign_type":"Large","station_name":"Lafayette Square","objectid":"2186","number_of_rack_spaces":"25","site_type":"On-Street","station_number":"523","width_of_station_in_feet":"5.25","length_of_station_in_feet":"64.08","issuedate":"20171205145502.000"},"geometry":{"type":"Point","coordinates":[-90.069521507178,29.948093923218]}},{"type":"Feature","properties":{"sign_type":"Small","station_name":"Algiers Ferry Terminal","objectid":"2177","number_of_rack_spaces":"10","site_type":"Off-street/Sidewalk","station_number":"700","width_of_station_in_feet":"5.25","length_of_station_in_feet":"21.1","issuedate":"20171201114802.000"},"geometry":{"type":"Point","coordinates":[-90.055173621414,29.953023829426]}},{"type":"Feature","properties":{"sign_type":"Small","station_name":"ESPLANADE & FRENCHMEN","objectid":"2199","number_of_rack_spaces":"25","site_type":"On-Street","station_number":"146","width_of_station_in_feet":"5.25","length_of_station_in_feet":"64","issuedate":"20171221132414.000"},"geometry":{"type":"Point","coordinates":[-90.057978075744,29.961900551228]}},{"type":"Feature","properties":{"sign_type":"Small","station_name":"Orleans & Miro","objectid":"2214","number_of_rack_spaces":"20","site_type":"On-Street","station_number":"271","width_of_station_in_feet":"5.25","length_of_station_in_feet":"51.75","issuedate":"20180103175058.000"},"geometry":{"type":"Point","coordinates":[-90.078690146649,29.967901491857]}},{"type":"Feature","properties":{"sign_type":"Small","station_name":"Esplanade & Desoto","objectid":"2215","number_of_rack_spaces":"14","site_type":"On-Street","station_number":"301","width_of_station_in_feet":"5.33","length_of_station_in_feet":"39.33","issuedate":"20180103175145.000"},"geometry":{"type":"Point","coordinates":[-90.080760969646,29.977557319288]}},{"type":"Feature","properties":{"sign_type":"Small","station_name":"Broad & Ursulines","objectid":"2210","number_of_rack_spaces":"20","site_type":"On-Street","station_number":"294","width_of_station_in_feet":"5.8","length_of_station_in_feet":"56.8","issuedate":"20180103175120.000"},"geometry":{"type":"Point","coordinates":[-90.080378898121,29.973986484629]}},{"type":"Feature","properties":{"sign_type":"None","station_name":"St Charles & Felicity","objectid":"2181","number_of_rack_spaces":"20","site_type":"On-Street","station_number":"412","width_of_station_in_feet":"5.5","length_of_station_in_feet":"51.83","issuedate":"20171116103153.000"},"geometry":{"type":"Point","coordinates":[-90.077403366793,29.936147127774]}},{"type":"Feature","properties":{"sign_type":"Small","station_name":"FRANKLIN & DAUPHINE","objectid":"2206","number_of_rack_spaces":"15","site_type":"On-Street","station_number":"129","width_of_station_in_feet":"5.25","length_of_station_in_feet":"39.5","issuedate":"20171221132705.000"},"geometry":{"type":"Point","coordinates":[-90.051092426351,29.965653406591]}},{"type":"Feature","properties":{"sign_type":"None","station_name":"Baronne & Girod","objectid":"2168","number_of_rack_spaces":"20","site_type":"Off-street/Sidewalk","station_number":"528","width_of_station_in_feet":"5.5","length_of_station_in_feet":"51.75","issuedate":"20171207154447.000"},"geometry":{"type":"Point","coordinates":[-90.073846010524,29.947801221734]}},{"type":"Feature","properties":{"sign_type":"Small","station_name":"BROAD & BIENVILLE","objectid":"2209","number_of_rack_spaces":"20","site_type":"On-Street","station_number":"283","width_of_station_in_feet":"5.33","length_of_station_in_feet":"51.75","issuedate":"20180103175030.000"},"geometry":{"type":"Point","coordinates":[-90.085255067595,29.967036406573]}},{"type":"Feature","properties":{"sign_type":"Small","station_name":"Elysian Fields & Derbigny","objectid":"2227","number_of_rack_spaces":"14","site_type":"On-Street","station_number":"255","width_of_station_in_feet":"5.3","length_of_station_in_feet":"44.25","issuedate":"20171221132139.000"},"geometry":{"type":"Point","coordinates":[-90.056953980734,29.974658576193]}},{"type":"Feature","properties":{"sign_type":"Large","station_name":"Camp & Common","objectid":"2174","number_of_rack_spaces":"20","site_type":"On-Street","station_number":"516","width_of_station_in_feet":"5.9","length_of_station_in_feet":"51.83","issuedate":"20171129170914.000"},"geometry":{"type":"Point","coordinates":[-90.068722961165,29.951790621344]}},{"type":"Feature","properties":{"sign_type":"Large","station_name":"ST CHARLES & JULIA","objectid":"2191","number_of_rack_spaces":"20","site_type":"On-Street","station_number":"548","width_of_station_in_feet":"5.25","length_of_station_in_feet":"53.33","issuedate":"20171207154625.000"},"geometry":{"type":"Point","coordinates":[-90.071514959549,29.945946137471]}},{"type":"Feature","properties":{"sign_type":"Large","station_name":"Canal & Marais","objectid":"2222","number_of_rack_spaces":"14","site_type":"Off-street/Sidewalk","station_number":"248","width_of_station_in_feet":"5.75","length_of_station_in_feet":"53","issuedate":"20171207154726.000"},"geometry":{"type":"Point","coordinates":[-90.075146800663,29.957502903002]}},{"type":"Feature","properties":{"sign_type":"Small","station_name":"Coliseum Square","objectid":"2182","number_of_rack_spaces":"10","site_type":"On-Street","station_number":"417","width_of_station_in_feet":"5.25","length_of_station_in_feet":"27.08","issuedate":"20171106111734.000"},"geometry":{"type":"Point","coordinates":[-90.072928648614,29.937557501473]}},{"type":"Feature","properties":{"sign_type":"Large","station_name":"Decatur & Wilkinson","objectid":"2228","number_of_rack_spaces":"20","site_type":"On-Street","station_number":"607","width_of_station_in_feet":"6","length_of_station_in_feet":"52","issuedate":"20180806093606.000"},"geometry":{"type":"Point","coordinates":[-90.062986881294,29.956456152618]}},{"type":"Feature","properties":{"sign_type":"Large","station_name":"St Charles & Erato","objectid":"2165","number_of_rack_spaces":"25","site_type":"On-Street","station_number":"413","width_of_station_in_feet":"5.25","length_of_station_in_feet":"64.08","issuedate":"20171103143354.000"},"geometry":{"type":"Point","coordinates":[-90.074653312997,29.940640440505]}},{"type":"Feature","properties":{"sign_type":"None","station_name":"Royal & St. Philip","objectid":"2232","number_of_rack_spaces":"7","site_type":"On-Street","station_number":"641","width_of_station_in_feet":"6.25","length_of_station_in_feet":"17.25","issuedate":"20180511104237.000"},"geometry":{"type":"Point","coordinates":[-90.062751955371,29.960536800846]}},{"type":"Feature","properties":{"sign_type":"Large","station_name":"St Claude & Elysian Fields","objectid":"2231","number_of_rack_spaces":"12","site_type":"On-Street","station_number":"118","width_of_station_in_feet":"6","length_of_station_in_feet":"32.3","issuedate":"20180326104324.000"},"geometry":{"type":"Point","coordinates":[-90.057096101756,29.968599266048]}},{"type":"Feature","properties":{"sign_type":"Large","station_name":"St Charles & Jackson","objectid":"2189","number_of_rack_spaces":"25","site_type":"On-Street","station_number":"410","width_of_station_in_feet":"5.25","length_of_station_in_feet":"64.08","issuedate":"20171103144212.000"},"geometry":{"type":"Point","coordinates":[-90.080517913228,29.933867724401]}},{"type":"Feature","properties":{"sign_type":"Small","station_name":"Esplanade & Ponce de Leon","objectid":"2233","number_of_rack_spaces":"14","site_type":"On-Street","station_number":"306","width_of_station_in_feet":"5.25","length_of_station_in_feet":"37","issuedate":"20180110164305.000"},"geometry":{"type":"Point","coordinates":[-90.085056962849,29.980563701542]}},{"type":"Feature","properties":{"sign_type":"Large","station_name":"Baronne & Common","objectid":"2223","number_of_rack_spaces":"25","site_type":"On-Street","station_number":"510","width_of_station_in_feet":"5.25","length_of_station_in_feet":"70","issuedate":"20171207155127.000"},"geometry":{"type":"Point","coordinates":[-90.072058974701,29.953201508455]}}]
}