[{"Name":"Algiers Point","id":17505930.8032786883,"latitude":29.9519867213,"longitude":-90.0505588525,"accommodates":4.262295082,"bathrooms":1.4262295082,"bedrooms":1.9344262295,"beds":2.5737704918,"price":140.7868852459,"minimum_nights":2.1475409836,"index":6,"point":0,"geometry.coordinates":[[-90.045372,29.958103],[-90.045577,29.955879]],"geometry.type":"MultiPolygon","properties.neighbourhood_group":null,"type":"Feature","lat":[-90.045372,29.958103],"long":[-90.045577,29.955879]},{"Name":"Audubon","id":17333882.6311475411,"latitude":29.9346603279,"longitude":-90.1209353279,"accommodates":4.7704918033,"bathrooms":1.6024590164,"bedrooms":2.0327868852,"beds":2.7049180328,"price":240.1229508197,"minimum_nights":3.7459016393,"index":9,"point":0,"geometry.coordinates":[[-90.109632,29.94135],[-90.109842,29.94059]],"geometry.type":"MultiPolygon","properties.neighbourhood_group":null,"type":"Feature","lat":[-90.109632,29.94135],"long":[-90.109842,29.94059]},{"Name":"Bayou St. John","id":16753120.6742424238,"latitude":29.9751914394,"longitude":-90.0846731818,"accommodates":4.2803030303,"bathrooms":1.3939393939,"bedrooms":1.7878787879,"beds":2.3863636364,"price":182.4772727273,"minimum_nights":3.1590909091,"index":13,"point":0,"geometry.coordinates":[[-90.078176,29.975992],[-90.078676,29.975416]],"geometry.type":"MultiPolygon","properties.neighbourhood_group":null,"type":"Feature","lat":[-90.078176,29.975992],"long":[-90.078676,29.975416]},{"Name":"Behrman","id":24875485.0833333321,"latitude":29.9362425,"longitude":-90.0286983333,"accommodates":4.6666666667,"bathrooms":1.375,"bedrooms":2.0833333333,"beds":2.5833333333,"price":122.75,"minimum_nights":1.9166666667,"index":17,"point":0,"geometry.coordinates":[[-90.014596,29.936997],[-90.014651,29.935425]],"geometry.type":"MultiPolygon","properties.neighbourhood_group":null,"type":"Feature","lat":[-90.014596,29.936997],"long":[-90.014651,29.935425]},{"Name":"Black Pearl","id":18018202.8275862075,"latitude":29.9380034483,"longitude":-90.1320186207,"accommodates":3.6551724138,"bathrooms":1.275862069,"bedrooms":1.724137931,"beds":2.1034482759,"price":147.8620689655,"minimum_nights":4.0689655172,"index":18,"point":0,"geometry.coordinates":[[-90.128148,29.938295],[-90.128229,29.93821]],"geometry.type":"MultiPolygon","properties.neighbourhood_group":null,"type":"Feature","lat":[-90.128148,29.938295],"long":[-90.128229,29.93821]},{"Name":"Broadmoor","id":18872004.0645161308,"latitude":29.9458629839,"longitude":-90.1040279032,"accommodates":4.7822580645,"bathrooms":1.4032258065,"bedrooms":1.9596774194,"beds":2.685483871,"price":159.4274193548,"minimum_nights":2.0322580645,"index":19,"point":0,"geometry.coordinates":[[-90.101453,29.952731],[-90.100928,29.951695]],"geometry.type":"MultiPolygon","properties.neighbourhood_group":null,"type":"Feature","lat":[-90.101453,29.952731],"long":[-90.100928,29.951695]},{"Name":"Bywater","id":16638257.3531914894,"latitude":29.9640672766,"longitude":-90.0418418298,"accommodates":4.0978723404,"bathrooms":1.4276595745,"bedrooms":1.7872340426,"beds":2.2723404255,"price":195.7914893617,"minimum_nights":2.7446808511,"index":20,"point":0,"geometry.coordinates":[[-90.021871,29.980672],[-90.024142,29.973704]],"geometry.type":"MultiPolygon","properties.neighbourhood_group":null,"type":"Feature","lat":[-90.021871,29.980672],"long":[-90.024142,29.973704]},{"Name":"Central Business District","id":23707422.1681715585,"latitude":29.9520719413,"longitude":-90.0717093905,"accommodates":4.1670428894,"bathrooms":1.4977426637,"bedrooms":1.4006772009,"beds":2.1884875847,"price":297.8386004515,"minimum_nights":2.1918735892,"index":14,"point":0,"geometry.coordinates":[[-90.07268,29.957116],[-90.072448,29.956945]],"geometry.type":"MultiPolygon","properties.neighbourhood_group":null,"type":"Feature","lat":[-90.07268,29.957116],"long":[-90.072448,29.956945]},{"Name":"Central City","id":20027107.2827004232,"latitude":29.9371866034,"longitude":-90.0821574051,"accommodates":4.447257384,"bathrooms":1.4187763713,"bedrooms":1.7130801688,"beds":2.4240506329,"price":178.5696202532,"minimum_nights":2.6329113924,"index":15,"point":0,"geometry.coordinates":[[-90.098276,29.951724],[-90.097839,29.951496]],"geometry.type":"MultiPolygon","properties.neighbourhood_group":null,"type":"Feature","lat":[-90.098276,29.951724],"long":[-90.097839,29.951496]},{"Name":"City Park","id":16138605.578947369,"latitude":29.9812703947,"longitude":-90.0962127632,"accommodates":3.8421052632,"bathrooms":1.2236842105,"bedrooms":1.5789473684,"beds":2.0394736842,"price":190.3947368421,"minimum_nights":2.3289473684,"index":21,"point":0,"geometry.coordinates":[[-90.085375,29.999445],[-90.085375,29.999383]],"geometry.type":"MultiPolygon","properties.neighbourhood_group":null,"type":"Feature","lat":[-90.085375,29.999445],"long":[-90.085375,29.999383]},{"Name":"Desire Area","id":23901026.8333333321,"latitude":30.00055,"longitude":-90.0383566667,"accommodates":3.6666666667,"bathrooms":1.1666666667,"bedrooms":1.1666666667,"beds":2.0,"price":143.0,"minimum_nights":1.5,"index":22,"point":0,"geometry.coordinates":[[-90.021698,29.980719],[-90.021871,29.980672]],"geometry.type":"MultiPolygon","properties.neighbourhood_group":null,"type":"Feature","lat":[-90.021698,29.980719],"long":[-90.021871,29.980672]},{"Name":"Dillard","id":19964667.2285714298,"latitude":29.997566,"longitude":-90.0653242857,"accommodates":5.0,"bathrooms":1.6,"bedrooms":2.1428571429,"beds":2.8285714286,"price":147.6857142857,"minimum_nights":1.9714285714,"index":23,"point":0,"geometry.coordinates":[[-90.05873,29.990864],[-90.059921,29.990777]],"geometry.type":"MultiPolygon","properties.neighbourhood_group":null,"type":"Feature","lat":[-90.05873,29.990864],"long":[-90.059921,29.990777]},{"Name":"Dixon","id":25988237.3333333321,"latitude":29.97463,"longitude":-90.11599,"accommodates":4.0,"bathrooms":1.1666666667,"bedrooms":1.6666666667,"beds":2.0,"price":70.3333333333,"minimum_nights":2.0,"index":16,"point":0,"geometry.coordinates":[[-90.112146,29.977315],[-90.111862,29.976634]],"geometry.type":"MultiPolygon","properties.neighbourhood_group":null,"type":"Feature","lat":[-90.112146,29.977315],"long":[-90.111862,29.976634]},{"Name":"East Carrollton","id":18176223.1896551736,"latitude":29.9462912069,"longitude":-90.1263681034,"accommodates":3.9655172414,"bathrooms":1.3448275862,"bedrooms":1.6379310345,"beds":2.0517241379,"price":155.9137931034,"minimum_nights":2.8793103448,"index":12,"point":0,"geometry.coordinates":[[-90.119424,29.949534],[-90.12008,29.948735]],"geometry.type":"MultiPolygon","properties.neighbourhood_group":null,"type":"Feature","lat":[-90.119424,29.949534],"long":[-90.12008,29.948735]},{"Name":"East Riverside","id":18730198.7247706428,"latitude":29.9198213761,"longitude":-90.0935436697,"accommodates":4.247706422,"bathrooms":1.3853211009,"bedrooms":1.7247706422,"beds":2.5963302752,"price":201.376146789,"minimum_nights":2.1009174312,"index":25,"point":0,"geometry.coordinates":[[-90.100959,29.917147],[-90.101074,29.917956]],"geometry.type":"MultiPolygon","properties.neighbourhood_group":null,"type":"Feature","lat":[-90.100959,29.917147],"long":[-90.101074,29.917956]},{"Name":"Fairgrounds","id":16753841.9186046515,"latitude":29.9829031395,"longitude":-90.0780340116,"accommodates":4.3720930233,"bathrooms":1.3052325581,"bedrooms":1.8895348837,"beds":2.4127906977,"price":169.0639534884,"minimum_nights":2.25,"index":26,"point":0,"geometry.coordinates":[[-90.076898,29.99215],[-90.076669,29.991741]],"geometry.type":"MultiPolygon","properties.neighbourhood_group":null,"type":"Feature","lat":[-90.076898,29.99215],"long":[-90.076669,29.991741]},{"Name":"Fillmore","id":17355654.1999999993,"latitude":30.0090827273,"longitude":-90.0777358182,"accommodates":5.2181818182,"bathrooms":1.6909090909,"bedrooms":2.2363636364,"beds":3.2545454545,"price":196.9636363636,"minimum_nights":1.9090909091,"index":10,"point":0,"geometry.coordinates":[[-90.070799,30.021408],[-90.070803,30.021168]],"geometry.type":"MultiPolygon","properties.neighbourhood_group":null,"type":"Feature","lat":[-90.070799,30.021408],"long":[-90.070803,30.021168]},{"Name":"Florida Area","id":23808144.7142857127,"latitude":29.9807685714,"longitude":-90.0381514286,"accommodates":4.7142857143,"bathrooms":1.1428571429,"bedrooms":2.0,"beds":2.1428571429,"price":148.5714285714,"minimum_nights":1.4285714286,"index":28,"point":0,"geometry.coordinates":[[-90.035424,29.98379],[-90.035457,29.983639]],"geometry.type":"MultiPolygon","properties.neighbourhood_group":null,"type":"Feature","lat":[-90.035424,29.98379],"long":[-90.035457,29.983639]},{"Name":"French Quarter","id":21176667.707142856,"latitude":29.9573877143,"longitude":-90.0660645,"accommodates":4.2857142857,"bathrooms":1.5,"bedrooms":1.2071428571,"beds":2.3642857143,"price":245.4714285714,"minimum_nights":2.6785714286,"index":68,"point":0,"geometry.coordinates":[[-90.052331,29.958381],[-90.054472,29.958003]],"geometry.type":"MultiPolygon","properties.neighbourhood_group":null,"type":"Feature","lat":[-90.052331,29.958381],"long":[-90.054472,29.958003]},{"Name":"Freret","id":20303560.9772727266,"latitude":29.9364425,"longitude":-90.1081002273,"accommodates":5.0454545455,"bathrooms":1.4204545455,"bedrooms":2.1363636364,"beds":2.7045454545,"price":156.9318181818,"minimum_nights":2.2272727273,"index":24,"point":0,"geometry.coordinates":[[-90.103305,29.940097],[-90.103222,29.939099]],"geometry.type":"MultiPolygon","properties.neighbourhood_group":null,"type":"Feature","lat":[-90.103305,29.940097],"long":[-90.103222,29.939099]},{"Name":"Garden District","id":16561263.0754716974,"latitude":29.9284171698,"longitude":-90.0846256604,"accommodates":4.4716981132,"bathrooms":1.5188679245,"bedrooms":1.9056603774,"beds":2.679245283,"price":282.1509433962,"minimum_nights":2.0377358491,"index":0,"point":0,"geometry.coordinates":[[-90.079209,29.92804],[-90.080013,29.927571]],"geometry.type":"MultiPolygon","properties.neighbourhood_group":null,"type":"Feature","lat":[-90.079209,29.92804],"long":[-90.080013,29.927571]},{"Name":"Gentilly Terrace","id":21230228.8217821792,"latitude":30.0027470297,"longitude":-90.0521015842,"accommodates":4.8217821782,"bathrooms":1.3415841584,"bedrooms":2.0297029703,"beds":2.7425742574,"price":138.0693069307,"minimum_nights":2.4356435644,"index":30,"point":0,"geometry.coordinates":[[-90.046705,30.012893],[-90.046672,30.012512]],"geometry.type":"MultiPolygon","properties.neighbourhood_group":null,"type":"Feature","lat":[-90.046705,30.012893],"long":[-90.046672,30.012512]},{"Name":"Gentilly Woods","id":23234913.2727272734,"latitude":30.0115345455,"longitude":-90.0362963636,"accommodates":6.0909090909,"bathrooms":1.5454545455,"bedrooms":2.7272727273,"beds":4.0909090909,"price":152.9090909091,"minimum_nights":1.6363636364,"index":31,"point":0,"geometry.coordinates":[[-90.027007,30.008315],[-90.027532,30.008185]],"geometry.type":"MultiPolygon","properties.neighbourhood_group":null,"type":"Feature","lat":[-90.027007,30.008315],"long":[-90.027532,30.008185]},{"Name":"Gert Town","id":26610028.125,"latitude":29.9601125,"longitude":-90.107705625,"accommodates":5.125,"bathrooms":1.34375,"bedrooms":1.8125,"beds":2.4375,"price":111.375,"minimum_nights":1.25,"index":33,"point":0,"geometry.coordinates":[[-90.094117,29.95781],[-90.094224,29.957657]],"geometry.type":"MultiPolygon","properties.neighbourhood_group":null,"type":"Feature","lat":[-90.094117,29.95781],"long":[-90.094224,29.957657]},{"Name":"Hollygrove","id":25010077.9615384601,"latitude":29.9664715385,"longitude":-90.122195,"accommodates":5.3461538462,"bathrooms":1.5576923077,"bedrooms":2.2692307692,"beds":3.1538461538,"price":151.2307692308,"minimum_nights":1.8461538462,"index":34,"point":0,"geometry.coordinates":[[-90.119953,29.973738],[-90.11915,29.973078]],"geometry.type":"MultiPolygon","properties.neighbourhood_group":null,"type":"Feature","lat":[-90.119953,29.973738],"long":[-90.11915,29.973078]},{"Name":"Holy Cross","id":19729599.4716981128,"latitude":29.9582549057,"longitude":-90.0188228302,"accommodates":4.6981132075,"bathrooms":1.4150943396,"bedrooms":1.9245283019,"beds":2.5660377358,"price":132.4528301887,"minimum_nights":1.8301886792,"index":3,"point":0,"geometry.coordinates":[[-90.006206,29.958119],[-90.012031,29.945941]],"geometry.type":"MultiPolygon","properties.neighbourhood_group":null,"type":"Feature","lat":[-90.006206,29.958119],"long":[-90.012031,29.945941]},{"Name":"Iberville","id":26620409.8333333321,"latitude":29.9592116667,"longitude":-90.0739666667,"accommodates":5.1666666667,"bathrooms":1.0,"bedrooms":1.0,"beds":2.6666666667,"price":141.5,"minimum_nights":1.6666666667,"index":2,"point":0,"geometry.coordinates":[[-90.070649,29.959424],[-90.0713,29.958708]],"geometry.type":"MultiPolygon","properties.neighbourhood_group":null,"type":"Feature","lat":[-90.070649,29.959424],"long":[-90.0713,29.958708]},{"Name":"Irish Channel","id":19255569.1574803144,"latitude":29.923467874,"longitude":-90.0824795276,"accommodates":4.3385826772,"bathrooms":1.437007874,"bedrooms":1.7401574803,"beds":2.2598425197,"price":196.3070866142,"minimum_nights":2.5590551181,"index":35,"point":0,"geometry.coordinates":[[-90.076084,29.923807],[-90.075729,29.923328]],"geometry.type":"MultiPolygon","properties.neighbourhood_group":null,"type":"Feature","lat":[-90.076084,29.923807],"long":[-90.075729,29.923328]},{"Name":"Lake Catherine","id":25476977.7333333343,"latitude":30.107938,"longitude":-89.7831506667,"accommodates":7.4666666667,"bathrooms":2.8333333333,"bedrooms":3.5333333333,"beds":5.2,"price":399.0666666667,"minimum_nights":2.4666666667,"index":36,"point":0,"geometry.coordinates":[[-89.742408,30.173864],[-89.742344,30.173832]],"geometry.type":"MultiPolygon","properties.neighbourhood_group":null,"type":"Feature","lat":[-89.742408,30.173864],"long":[-89.742344,30.173832]},{"Name":"Lake Terrace & Oaks","id":27514008.5,"latitude":30.026995,"longitude":-90.07425,"accommodates":2.5,"bathrooms":1.25,"bedrooms":1.5,"beds":1.5,"price":97.5,"minimum_nights":1.5,"index":41,"point":0,"geometry.coordinates":[[-90.035248,30.031681],[-90.035242,30.03166]],"geometry.type":"MultiPolygon","properties.neighbourhood_group":null,"type":"Feature","lat":[-90.035248,30.031681],"long":[-90.035242,30.03166]},{"Name":"Lakeshore - Lake Vista","id":9927338.0,"latitude":30.02346,"longitude":-90.11291,"accommodates":6.0,"bathrooms":2.5,"bedrooms":3.0,"beds":4.0,"price":325.0,"minimum_nights":2.0,"index":38,"point":0,"geometry.coordinates":[[-90.082512,30.026223],[-90.082512,30.026211]],"geometry.type":"MultiPolygon","properties.neighbourhood_group":null,"type":"Feature","lat":[-90.082512,30.026223],"long":[-90.082512,30.026211]},{"Name":"Lakeview","id":19951389.1538461521,"latitude":30.0067723077,"longitude":-90.1101873077,"accommodates":5.0,"bathrooms":1.6346153846,"bedrooms":2.0769230769,"beds":3.0769230769,"price":192.6153846154,"minimum_nights":3.1153846154,"index":39,"point":0,"geometry.coordinates":[[-90.098684,30.018909],[-90.098675,30.018816]],"geometry.type":"MultiPolygon","properties.neighbourhood_group":null,"type":"Feature","lat":[-90.098684,30.018909],"long":[-90.098675,30.018816]},{"Name":"Lakewood","id":20145243.6666666679,"latitude":29.9890333333,"longitude":-90.1230366667,"accommodates":7.0,"bathrooms":2.6666666667,"bedrooms":3.3333333333,"beds":4.6666666667,"price":500.0,"minimum_nights":1.6666666667,"index":42,"point":0,"geometry.coordinates":[[-90.116235,29.999691],[-90.116236,29.99956]],"geometry.type":"MultiPolygon","properties.neighbourhood_group":null,"type":"Feature","lat":[-90.116235,29.999691],"long":[-90.116236,29.99956]},{"Name":"Leonidas","id":19535213.6283783801,"latitude":29.9537525676,"longitude":-90.1282152027,"accommodates":4.2972972973,"bathrooms":1.4054054054,"bedrooms":1.8378378378,"beds":2.4421768707,"price":166.9932432432,"minimum_nights":4.0675675676,"index":46,"point":0,"geometry.coordinates":[[-90.118498,29.962401],[-90.117689,29.961767]],"geometry.type":"MultiPolygon","properties.neighbourhood_group":null,"type":"Feature","lat":[-90.118498,29.962401],"long":[-90.117689,29.961767]},{"Name":"Little Woods","id":27871965.3269230761,"latitude":30.0455286538,"longitude":-89.9844378846,"accommodates":6.3076923077,"bathrooms":1.6923076923,"bedrooms":2.5,"beds":3.5384615385,"price":163.1923076923,"minimum_nights":1.75,"index":1,"point":0,"geometry.coordinates":[[-89.939486,30.060051],[-89.940079,30.059649]],"geometry.type":"MultiPolygon","properties.neighbourhood_group":null,"type":"Feature","lat":[-89.939486,30.060051],"long":[-89.940079,30.059649]},{"Name":"Lower Garden District","id":19174662.8120567389,"latitude":29.933965461,"longitude":-90.0730989716,"accommodates":4.3333333333,"bathrooms":1.5478723404,"bedrooms":1.8723404255,"beds":2.4326241135,"price":250.5,"minimum_nights":3.1808510638,"index":47,"point":0,"geometry.coordinates":[[-90.057932,29.938016],[-90.058016,29.935814]],"geometry.type":"MultiPolygon","properties.neighbourhood_group":null,"type":"Feature","lat":[-90.057932,29.938016],"long":[-90.058016,29.935814]},{"Name":"Lower Ninth Ward","id":25561778.2666666657,"latitude":29.9654066667,"longitude":-90.0157873333,"accommodates":5.4666666667,"bathrooms":1.4333333333,"bedrooms":2.6,"beds":4.3333333333,"price":133.8666666667,"minimum_nights":1.8,"index":48,"point":0,"geometry.coordinates":[[-89.998751,29.9737],[-89.999078,29.973017]],"geometry.type":"MultiPolygon","properties.neighbourhood_group":null,"type":"Feature","lat":[-89.998751,29.9737],"long":[-89.999078,29.973017]},{"Name":"Marigny","id":16965199.491712708,"latitude":29.9656922376,"longitude":-90.0567145856,"accommodates":4.226519337,"bathrooms":1.5,"bedrooms":1.7624309392,"beds":2.3977900552,"price":244.4723756906,"minimum_nights":2.5718232044,"index":49,"point":0,"geometry.coordinates":[[-90.050083,29.969104],[-90.050143,29.968937]],"geometry.type":"MultiPolygon","properties.neighbourhood_group":null,"type":"Feature","lat":[-90.050083,29.969104],"long":[-90.050143,29.968937]},{"Name":"Marlyville - Fontainbleau","id":18656948.6391752586,"latitude":29.9530692784,"longitude":-90.1146790722,"accommodates":4.2783505155,"bathrooms":1.3505154639,"bedrooms":1.7731958763,"beds":2.4329896907,"price":183.0618556701,"minimum_nights":2.824742268,"index":50,"point":0,"geometry.coordinates":[[-90.105941,29.955147],[-90.106374,29.954464]],"geometry.type":"MultiPolygon","properties.neighbourhood_group":null,"type":"Feature","lat":[-90.105941,29.955147],"long":[-90.106374,29.954464]},{"Name":"Mcdonogh","id":21072997.212121211,"latitude":29.9453881818,"longitude":-90.0501963636,"accommodates":4.0606060606,"bathrooms":1.2575757576,"bedrooms":1.7575757576,"beds":2.4545454545,"price":126.4848484848,"minimum_nights":1.8787878788,"index":45,"point":0,"geometry.coordinates":[[-90.046138,29.948653],[-90.045191,29.94862]],"geometry.type":"MultiPolygon","properties.neighbourhood_group":null,"type":"Feature","lat":[-90.046138,29.948653],"long":[-90.045191,29.94862]},{"Name":"Mid-City","id":19947170.96875,"latitude":29.9707994271,"longitude":-90.0990679688,"accommodates":4.4479166667,"bathrooms":1.3524804178,"bedrooms":1.8307291667,"beds":2.5613577023,"price":236.8984375,"minimum_nights":1.90625,"index":52,"point":0,"geometry.coordinates":[[-90.090409,29.975931],[-90.090354,29.975868]],"geometry.type":"MultiPolygon","properties.neighbourhood_group":null,"type":"Feature","lat":[-90.090409,29.975931],"long":[-90.090354,29.975868]},{"Name":"Milan","id":20266649.5233644843,"latitude":29.932582243,"longitude":-90.0973715888,"accommodates":4.7663551402,"bathrooms":1.476635514,"bedrooms":1.9719626168,"beds":2.7663551402,"price":223.9158878505,"minimum_nights":1.9906542056,"index":53,"point":0,"geometry.coordinates":[[-90.090182,29.928632],[-90.09131,29.9282]],"geometry.type":"MultiPolygon","properties.neighbourhood_group":null,"type":"Feature","lat":[-90.090182,29.928632],"long":[-90.09131,29.9282]},{"Name":"Milneburg","id":20704539.9473684207,"latitude":30.0181305263,"longitude":-90.0550973684,"accommodates":5.0526315789,"bathrooms":1.4605263158,"bedrooms":2.0789473684,"beds":2.9736842105,"price":144.8684210526,"minimum_nights":1.9210526316,"index":32,"point":0,"geometry.coordinates":[[-90.046735,30.013262],[-90.047255,30.013262]],"geometry.type":"MultiPolygon","properties.neighbourhood_group":null,"type":"Feature","lat":[-90.046735,30.013262],"long":[-90.047255,30.013262]},{"Name":"Navarre","id":17535871.0526315793,"latitude":29.9886621053,"longitude":-90.1093278947,"accommodates":4.1578947368,"bathrooms":1.6315789474,"bedrooms":1.9473684211,"beds":2.4210526316,"price":210.2631578947,"minimum_nights":2.1578947368,"index":37,"point":0,"geometry.coordinates":[[-90.101649,29.993224],[-90.101809,29.991768]],"geometry.type":"MultiPolygon","properties.neighbourhood_group":null,"type":"Feature","lat":[-90.101649,29.993224],"long":[-90.101809,29.991768]},{"Name":"New Aurora - English Turn","id":31993609.125,"latitude":29.9071375,"longitude":-89.9450475,"accommodates":1.875,"bathrooms":1.0,"bedrooms":1.0,"beds":1.0,"price":147.625,"minimum_nights":1.5,"index":58,"point":0,"geometry.coordinates":[[-89.985324,29.904317],[-89.98532,29.904375]],"geometry.type":"MultiPolygon","properties.neighbourhood_group":null,"type":"Feature","lat":[-89.985324,29.904317],"long":[-89.98532,29.904375]},{"Name":"Old Aurora","id":22962613.4166666679,"latitude":29.9218360417,"longitude":-90.001158125,"accommodates":5.3958333333,"bathrooms":1.7083333333,"bedrooms":2.4375,"beds":3.3541666667,"price":186.9583333333,"minimum_nights":1.5833333333,"index":11,"point":0,"geometry.coordinates":[[-90.012031,29.945941],[-90.012063,29.945874]],"geometry.type":"MultiPolygon","properties.neighbourhood_group":null,"type":"Feature","lat":[-90.012031,29.945941],"long":[-90.012063,29.945874]},{"Name":"Pines Village","id":22891880.2222222239,"latitude":30.0238488889,"longitude":-90.0175222222,"accommodates":6.0,"bathrooms":1.7222222222,"bedrooms":2.5555555556,"beds":2.8888888889,"price":212.6666666667,"minimum_nights":1.7777777778,"index":54,"point":0,"geometry.coordinates":[[-90.009954,30.026423],[-90.010533,30.026287]],"geometry.type":"MultiPolygon","properties.neighbourhood_group":null,"type":"Feature","lat":[-90.009954,30.026423],"long":[-90.010533,30.026287]},{"Name":"Plum Orchard","id":23458838.75,"latitude":30.0182075,"longitude":-89.9942175,"accommodates":4.0,"bathrooms":1.875,"bedrooms":1.75,"beds":2.0,"price":138.75,"minimum_nights":1.5,"index":55,"point":0,"geometry.coordinates":[[-89.988866,30.014181],[-89.989248,30.014106]],"geometry.type":"MultiPolygon","properties.neighbourhood_group":null,"type":"Feature","lat":[-89.988866,30.014181],"long":[-89.989248,30.014106]},{"Name":"Pontchartrain Park","id":20476922.0,"latitude":30.0217,"longitude":-90.0411857143,"accommodates":6.2857142857,"bathrooms":2.0714285714,"bedrooms":2.4285714286,"beds":3.7142857143,"price":228.7142857143,"minimum_nights":2.2857142857,"index":51,"point":0,"geometry.coordinates":[[-90.034374,30.0313],[-90.034333,30.031083]],"geometry.type":"MultiPolygon","properties.neighbourhood_group":null,"type":"Feature","lat":[-90.034374,30.0313],"long":[-90.034333,30.031083]},{"Name":"Read Blvd East","id":25484188.1111111119,"latitude":30.0363122222,"longitude":-89.9565755556,"accommodates":5.4444444444,"bathrooms":1.8888888889,"bedrooms":2.5555555556,"beds":3.3333333333,"price":292.5555555556,"minimum_nights":2.6666666667,"index":56,"point":0,"geometry.coordinates":[[-89.939617,30.026996],[-89.940177,30.026783]],"geometry.type":"MultiPolygon","properties.neighbourhood_group":null,"type":"Feature","lat":[-89.939617,30.026996],"long":[-89.940177,30.026783]},{"Name":"Read Blvd West","id":28989162.3333333321,"latitude":30.0213966667,"longitude":-89.9760283333,"accommodates":6.6666666667,"bathrooms":1.75,"bedrooms":3.1666666667,"beds":6.3333333333,"price":359.5,"minimum_nights":2.1666666667,"index":57,"point":0,"geometry.coordinates":[[-89.968123,30.018577],[-89.968557,30.018455]],"geometry.type":"MultiPolygon","properties.neighbourhood_group":null,"type":"Feature","lat":[-89.968123,30.018577],"long":[-89.968557,30.018455]},{"Name":"Seventh Ward","id":19534398.2568181828,"latitude":29.9739414773,"longitude":-90.0662213182,"accommodates":4.7772727273,"bathrooms":1.4886363636,"bedrooms":2.0386363636,"beds":2.9863636364,"price":236.0545454545,"minimum_nights":2.0977272727,"index":60,"point":0,"geometry.coordinates":[[-90.056979,29.968709],[-90.058133,29.968609]],"geometry.type":"MultiPolygon","properties.neighbourhood_group":null,"type":"Feature","lat":[-90.056979,29.968709],"long":[-90.058133,29.968609]},{"Name":"St.  Anthony","id":22503704.7714285702,"latitude":30.0175817143,"longitude":-90.0655608571,"accommodates":5.2571428571,"bathrooms":1.4428571429,"bedrooms":2.2857142857,"beds":2.9428571429,"price":134.9714285714,"minimum_nights":1.9714285714,"index":62,"point":0,"geometry.coordinates":[[-90.060463,30.012535],[-90.06045,30.012366]],"geometry.type":"MultiPolygon","properties.neighbourhood_group":null,"type":"Feature","lat":[-90.060463,30.012535],"long":[-90.06045,30.012366]},{"Name":"St. Bernard Area","id":19562010.0,"latitude":29.99879375,"longitude":-90.0764025,"accommodates":4.625,"bathrooms":1.125,"bedrooms":1.75,"beds":2.375,"price":143.375,"minimum_nights":1.75,"index":63,"point":0,"geometry.coordinates":[[-90.07336,29.993029],[-90.074543,29.992943]],"geometry.type":"MultiPolygon","properties.neighbourhood_group":null,"type":"Feature","lat":[-90.07336,29.993029],"long":[-90.074543,29.992943]},{"Name":"St. Claude","id":19065226.6652892567,"latitude":29.9694114876,"longitude":-90.0408645041,"accommodates":4.0991735537,"bathrooms":1.3966942149,"bedrooms":1.8181818182,"beds":2.3842975207,"price":142.3760330579,"minimum_nights":2.6115702479,"index":64,"point":0,"geometry.coordinates":[[-90.031367,29.975679],[-90.030449,29.975497]],"geometry.type":"MultiPolygon","properties.neighbourhood_group":null,"type":"Feature","lat":[-90.031367,29.975679],"long":[-90.030449,29.975497]},{"Name":"St. Roch","id":19901810.2074074075,"latitude":29.975429037,"longitude":-90.0534705185,"accommodates":4.5407407407,"bathrooms":1.4067164179,"bedrooms":1.9777777778,"beds":2.6148148148,"price":153.1925925926,"minimum_nights":2.4074074074,"index":65,"point":0,"geometry.coordinates":[[-90.04508,29.986286],[-90.045116,29.986177]],"geometry.type":"MultiPolygon","properties.neighbourhood_group":null,"type":"Feature","lat":[-90.04508,29.986286],"long":[-90.045116,29.986177]},{"Name":"St. Thomas Dev","id":19624825.9655172415,"latitude":29.9266815517,"longitude":-90.0726748276,"accommodates":4.5344827586,"bathrooms":1.6034482759,"bedrooms":1.8448275862,"beds":2.3448275862,"price":227.3448275862,"minimum_nights":1.9655172414,"index":43,"point":0,"geometry.coordinates":[[-90.062609,29.926039],[-90.063019,29.925579]],"geometry.type":"MultiPolygon","properties.neighbourhood_group":null,"type":"Feature","lat":[-90.062609,29.926039],"long":[-90.063019,29.925579]},{"Name":"Tall Timbers - Brechtel","id":20454014.7272727266,"latitude":29.9154386364,"longitude":-90.0154413636,"accommodates":6.6818181818,"bathrooms":1.9090909091,"bedrooms":2.7272727273,"beds":4.5909090909,"price":159.4545454545,"minimum_nights":2.0,"index":66,"point":0,"geometry.coordinates":[[-90.014708,29.920941],[-90.014549,29.920843]],"geometry.type":"MultiPolygon","properties.neighbourhood_group":null,"type":"Feature","lat":[-90.014708,29.920941],"long":[-90.014549,29.920843]},{"Name":"Touro","id":18213517.0769230761,"latitude":29.9240436538,"longitude":-90.0960651923,"accommodates":4.2884615385,"bathrooms":1.4903846154,"bedrooms":1.7884615385,"beds":2.5384615385,"price":188.75,"minimum_nights":3.3653846154,"index":67,"point":0,"geometry.coordinates":[[-90.087727,29.92343],[-90.088812,29.923019]],"geometry.type":"MultiPolygon","properties.neighbourhood_group":null,"type":"Feature","lat":[-90.087727,29.92343],"long":[-90.088812,29.923019]},{"Name":"Treme - Lafitte","id":18944314.7783375308,"latitude":29.9680222166,"longitude":-90.0720985642,"accommodates":4.5415617128,"bathrooms":1.5012594458,"bedrooms":1.8664987406,"beds":2.7405541562,"price":239.8639798489,"minimum_nights":2.1234256927,"index":61,"point":0,"geometry.coordinates":[[-90.063597,29.966021],[-90.063701,29.965906]],"geometry.type":"MultiPolygon","properties.neighbourhood_group":null,"type":"Feature","lat":[-90.063597,29.966021],"long":[-90.063701,29.965906]},{"Name":"Tulane - Gravier","id":21199915.4640000015,"latitude":29.96192688,"longitude":-90.08543888,"accommodates":5.392,"bathrooms":1.604,"bedrooms":2.08,"beds":3.12,"price":401.448,"minimum_nights":1.656,"index":59,"point":0,"geometry.coordinates":[[-90.074735,29.962198],[-90.075388,29.961483]],"geometry.type":"MultiPolygon","properties.neighbourhood_group":null,"type":"Feature","lat":[-90.074735,29.962198],"long":[-90.075388,29.961483]},{"Name":"U.S. Naval Base","id":3740993.0,"latitude":29.94983,"longitude":-90.03243,"accommodates":4.0,"bathrooms":1.0,"bedrooms":1.0,"beds":2.0,"price":79.0,"minimum_nights":1.0,"index":5,"point":0,"geometry.coordinates":[[-90.026671,29.953203],[-90.025458,29.952615]],"geometry.type":"MultiPolygon","properties.neighbourhood_group":null,"type":"Feature","lat":[-90.026671,29.953203],"long":[-90.025458,29.952615]},{"Name":"Uptown","id":17388692.1916666664,"latitude":29.926446,"longitude":-90.1063913333,"accommodates":4.6333333333,"bathrooms":1.6583333333,"bedrooms":1.9831932773,"beds":2.6083333333,"price":251.9666666667,"minimum_nights":4.1916666667,"index":40,"point":0,"geometry.coordinates":[[-90.101919,29.9264],[-90.101854,29.925729]],"geometry.type":"MultiPolygon","properties.neighbourhood_group":null,"type":"Feature","lat":[-90.101919,29.9264],"long":[-90.101854,29.925729]},{"Name":"Viavant - Venetian Isles","id":23002332.0,"latitude":30.00012,"longitude":-89.95691,"accommodates":3.5,"bathrooms":1.75,"bedrooms":0.5,"beds":2.0,"price":75.0,"minimum_nights":2.0,"index":4,"point":0,"geometry.coordinates":[[-89.820462,30.043408],[-89.820701,30.042994]],"geometry.type":"MultiPolygon","properties.neighbourhood_group":null,"type":"Feature","lat":[-89.820462,30.043408],"long":[-89.820701,30.042994]},{"Name":"Village De Lest","id":27930310.0,"latitude":30.04205,"longitude":-89.9279825,"accommodates":6.5,"bathrooms":1.25,"bedrooms":2.25,"beds":4.0,"price":133.75,"minimum_nights":3.0,"index":71,"point":0,"geometry.coordinates":[[-89.880088,30.148512],[-89.880061,30.148478]],"geometry.type":"MultiPolygon","properties.neighbourhood_group":null,"type":"Feature","lat":[-89.880088,30.148512],"long":[-89.880061,30.148478]},{"Name":"West End","id":23916706.555555556,"latitude":30.0122972222,"longitude":-90.1185322222,"accommodates":4.5,"bathrooms":1.5,"bedrooms":1.8333333333,"beds":2.3333333333,"price":152.7222222222,"minimum_nights":1.7222222222,"index":44,"point":0,"geometry.coordinates":[[-90.112824,30.027981],[-90.11336,30.027935]],"geometry.type":"MultiPolygon","properties.neighbourhood_group":null,"type":"Feature","lat":[-90.112824,30.027981],"long":[-90.11336,30.027935]},{"Name":"West Lake Forest","id":28944751.6666666679,"latitude":30.0285133333,"longitude":-89.9843166667,"accommodates":7.0,"bathrooms":1.5,"bedrooms":2.3333333333,"beds":3.3333333333,"price":175.0,"minimum_nights":1.6666666667,"index":69,"point":0,"geometry.coordinates":[[-89.968954,30.026744],[-89.96948,30.026631]],"geometry.type":"MultiPolygon","properties.neighbourhood_group":null,"type":"Feature","lat":[-89.968954,30.026744],"long":[-89.96948,30.026631]},{"Name":"West Riverside","id":18267453.4954128452,"latitude":29.918436789,"longitude":-90.1114014679,"accommodates":3.9174311927,"bathrooms":1.4036697248,"bedrooms":1.7155963303,"beds":2.0733944954,"price":262.3944954128,"minimum_nights":2.1467889908,"index":70,"point":0,"geometry.coordinates":[[-90.115029,29.920924],[-90.113766,29.920716]],"geometry.type":"MultiPolygon","properties.neighbourhood_group":null,"type":"Feature","lat":[-90.115029,29.920924],"long":[-90.113766,29.920716]},{"Name":"Whitney","id":18036536.384615384,"latitude":29.9482584615,"longitude":-90.0431761538,"accommodates":4.6923076923,"bathrooms":1.1538461538,"bedrooms":1.9230769231,"beds":2.4615384615,"price":113.2307692308,"minimum_nights":4.0,"index":7,"point":0,"geometry.coordinates":[[-90.038071,29.956703],[-90.038383,29.953693]],"geometry.type":"MultiPolygon","properties.neighbourhood_group":null,"type":"Feature","lat":[-90.038071,29.956703],"long":[-90.038383,29.953693]}]